[
    {
      "id": "001",
      "name": "Menuiserie Al Andalus",
      "slug": "menuiserie-al-andalus-casablanca",
      "category": "menuiserie",
      "description": "Menuiserie d'art spécialisée dans les meubles sur mesure et les éléments architecturaux en bois.",
      "address": "Avenue des FAR, Casablanca",
      "city": "Casablanca",
      "phone": "+212661234567",
      "hours": "Lun–Sam 08:00–18:00",
      "has_website": false,
      "verified_at": "2025-12-02T10:30:00Z",
      "source": {"type": "visite", "note": "Atelier vérifié sur place"}
    },
    {
      "id": "002",
      "name": "Restaurant Dar Tajine",
      "slug": "restaurant-dar-tajine-marrakech",
      "category": "restaurant",
      "description": "Cuisine marocaine traditionnelle dans un cadre authentique avec patio.",
      "address": "Rue de la Kasbah, Marrakech",
      "city": "Marrakech",
      "phone": "+212662345678",
      "hours": "Lun–Dim 12:00–23:00",
      "has_website": true,
      "verified_at": "2025-12-01T19:30:00Z",
      "source": {"type": "visite", "note": "Dîner testé"}
    },
    {
      "id": "003",
      "name": "Pâtisserie Douceur",
      "slug": "patisserie-douceur-rabat",
      "category": "patisserie",
      "description": "Pâtisserie française et marocaine, spécialiste des macarons et gâteaux d'anniversaire.",
      "address": "Avenue Mohammed V, Rabat",
      "city": "Rabat",
      "phone": "+212663456789",
      "hours": "Lun–Dim 07:30–21:00",
      "has_website": false,
      "verified_at": "2025-12-02T09:15:00Z",
      "source": {"type": "telephone", "note": "Infos confirmées"}
    },
    {
      "id": "004",
      "name": "Boulangerie du Soleil",
      "slug": "boulangerie-du-soleil-fes",
      "category": "boulangerie",
      "description": "Pain traditionnel au levain et viennoiseries faites maison.",
      "address": "Rue Talaa Kebira, Fès",
      "city": "Fès",
      "phone": "+212664567890",
      "hours": "Lun–Dim 05:30–20:00",
      "has_website": false,
      "verified_at": "2025-12-02T06:45:00Z",
      "source": {"type": "visite", "note": "Visite matinale"}
    },
    {
      "id": "005",
      "name": "Electro Plus",
      "slug": "electro-plus-tanger",
      "category": "electromenager",
      "description": "Grand choix d'électroménager et appareils électroniques avec garantie étendue.",
      "address": "Boulevard Pasteur, Tanger",
      "city": "Tanger",
      "phone": "+212665678901",
      "hours": "Lun–Sam 09:30–20:00",
      "has_website": true,
      "verified_at": "2025-12-01T15:20:00Z",
      "source": {"type": "telephone", "note": "Contact avec gérant"}
    },
    {
      "id": "006",
      "name": "Atelier Métal Express",
      "slug": "atelier-metal-express-casablanca",
      "category": "industrie",
      "description": "Fabrication et installation de structures métalliques pour bâtiments industriels.",
      "address": "Zone Industrielle Aïn Sebaâ, Casablanca",
      "city": "Casablanca",
      "phone": "+212666789012",
      "hours": "Lun–Ven 07:30–16:30",
      "has_website": false,
      "verified_at": "2025-12-02T11:10:00Z",
      "source": {"type": "visite", "note": "Atelier inspecté"}
    },
    {
      "id": "007",
      "name": "Café Central",
      "slug": "cafe-central-rabat",
      "category": "cafe",
      "description": "Café historique au centre-ville, idéal pour les rencontres d'affaires.",
      "address": "Place Mohammed V, Rabat",
      "city": "Rabat",
      "phone": "+212667890123",
      "hours": "Lun–Dim 06:00–00:00",
      "has_website": false,
      "verified_at": "2025-12-01T10:00:00Z",
      "source": {"type": "visite", "note": "Fréquentation régulière"}
    },
    {
      "id": "008",
      "name": "Boutique Phone Maroc",
      "slug": "boutique-phone-maroc-marrakech",
      "category": "telephonie",
      "description": "Vente de smartphones neufs et reconditionnés avec service après-vente.",
      "address": "Gueliz, Marrakech",
      "city": "Marrakech",
      "phone": "+212668901234",
      "hours": "Lun–Sam 10:00–20:00",
      "has_website": true,
      "verified_at": "2025-12-02T14:30:00Z",
      "source": {"type": "telephone", "note": "Infos mises à jour"}
    },
    {
      "id": "009",
      "name": "Superette du Quartier",
      "slug": "superette-du-quartier-agadir",
      "category": "commerce",
      "description": "Petite épicerie de proximité avec produits frais et articles de première nécessité.",
      "address": "Quartier Talborjt, Agadir",
      "city": "Agadir",
      "phone": "+212669012345",
      "hours": "Lun–Dim 07:00–22:30",
      "has_website": false,
      "verified_at": "2025-12-01T18:45:00Z",
      "source": {"type": "visite", "note": "Clientèle locale"}
    },
    {
      "id": "010",
      "name": "Menuiserie Moderne",
      "slug": "menuiserie-moderne-meknes",
      "category": "menuiserie",
      "description": "Cuisines intégrées et placards sur mesure avec finitions haut de gamme.",
      "address": "Avenue des Nations Unies, Meknès",
      "city": "Meknès",
      "phone": "+212661098765",
      "hours": "Lun–Sam 08:30–17:30",
      "has_website": true,
      "verified_at": "2025-12-02T12:00:00Z",
      "source": {"type": "visite", "note": "Showroom visité"}
    },
    {
      "id": "011",
      "name": "Snack Rapido",
      "slug": "snack-rapido-casablanca",
      "category": "restaurant",
      "description": "Fast-food proposant burgers, pizzas et plats à emporter.",
      "address": "Avenue Ibn Sina, Casablanca",
      "city": "Casablanca",
      "phone": "+212662109876",
      "hours": "Lun–Dim 11:00–01:00",
      "has_website": false,
      "verified_at": "2025-12-01T21:15:00Z",
      "source": {"type": "visite", "note": "Testé en soirée"}
    },
    {
      "id": "012",
      "name": "Pâtisserie Royale",
      "slug": "patisserie-royale-tanger",
      "category": "patisserie",
      "description": "Gâteaux orientaux, pâtisseries fines et traiteur pour événements.",
      "address": "Avenue d'Espagne, Tanger",
      "city": "Tanger",
      "phone": "+212663210987",
      "hours": "Lun–Dim 07:00–20:00",
      "has_website": false,
      "verified_at": "2025-12-02T08:30:00Z",
      "source": {"type": "telephone", "note": "Confirmé par gérant"}
    },
    {
      "id": "013",
      "name": "Boulangerie L'Olivier",
      "slug": "boulangerie-l-olivier-kenitra",
      "category": "boulangerie",
      "description": "Spécialiste du pain bio et produits sans gluten.",
      "address": "Rue Moulay Ismail, Kénitra",
      "city": "Kénitra",
      "phone": "+212664321098",
      "hours": "Lun–Dim 06:00–19:30",
      "has_website": false,
      "verified_at": "2025-12-02T07:00:00Z",
      "source": {"type": "visite", "note": "Observé à l'ouverture"}
    },
    {
      "id": "014",
      "name": "Electro City",
      "slug": "electro-city-fes",
      "category": "electromenager",
      "description": "Magasin d'électroménager multi-marques avec démonstration sur place.",
      "address": "Avenue Allal El Fassi, Fès",
      "city": "Fès",
      "phone": "+212665432109",
      "hours": "Lun–Sam 09:00–19:30",
      "has_website": true,
      "verified_at": "2025-12-01T16:45:00Z",
      "source": {"type": "telephone", "note": "Appel commercial"}
    },
    {
      "id": "015",
      "name": "Soudure Industrielle",
      "slug": "soudure-industrielle-rabat",
      "category": "industrie",
      "description": "Réalisation de pièces industrielles sur mesure et maintenance d'équipements.",
      "address": "Zone Industrielle de Salé, Rabat",
      "city": "Rabat",
      "phone": "+212666543210",
      "hours": "Lun–Ven 07:00–16:00",
      "has_website": false,
      "verified_at": "2025-12-02T10:00:00Z",
      "source": {"type": "visite", "note": "Atelier en activité"}
    },
    {
      "id": "016",
      "name": "Café Littéraire",
      "slug": "cafe-litteraire-fes",
      "category": "cafe",
      "description": "Café-bibliothèque avec ambiance calme et sélection de livres en consultation.",
      "address": "Médina de Fès, Fès",
      "city": "Fès",
      "phone": "+212667654321",
      "hours": "Lun–Dim 08:00–22:00",
      "has_website": false,
      "verified_at": "2025-12-01T15:30:00Z",
      "source": {"type": "visite", "note": "Ambiance vérifiée"}
    },
    {
      "id": "017",
      "name": "Phone Center",
      "slug": "phone-center-agadir",
      "category": "telephonie",
      "description": "Centre de réparation express et vente d'accessoires pour téléphones.",
      "address": "Avenue du Prince Héritier, Agadir",
      "city": "Agadir",
      "phone": "+212668765432",
      "hours": "Lun–Sam 09:30–19:00",
      "has_website": false,
      "verified_at": "2025-12-02T13:20:00Z",
      "source": {"type": "telephone", "note": "Service confirmé"}
    },
    {
      "id": "018",
      "name": "Market Express",
      "slug": "market-express-marrakech",
      "category": "commerce",
      "description": "Mini-market ouvert tard avec service de livraison rapide.",
      "address": "Hivernage, Marrakech",
      "city": "Marrakech",
      "phone": "+212669876543",
      "hours": "Lun–Dim 08:00–23:00",
      "has_website": true,
      "verified_at": "2025-12-01T19:00:00Z",
      "source": {"type": "visite", "note": "Service de livraison observé"}
    },
    {
      "id": "019",
      "name": "Menuiserie Bois Noble",
      "slug": "menuiserie-bois-noble-tetouan",
      "category": "menuiserie",
      "description": "Travail du bois précieux pour meubles d'art et restauration d'antiquités.",
      "address": "Vieille Médina, Tétouan",
      "city": "Tétouan",
      "phone": "+212661112233",
      "hours": "Lun–Sam 09:00–17:00",
      "has_website": false,
      "verified_at": "2025-12-02T11:30:00Z",
      "source": {"type": "visite", "note": "Atelier d'artisanat vérifié"}
    },
    {
      "id": "020",
      "name": "Restaurant Le Jardin",
      "slug": "restaurant-le-jardin-agadir",
      "category": "restaurant",
      "description": "Cuisine internationale servie dans un jardin tropical avec terrasse.",
      "address": "Boulevard du 20 Août, Agadir",
      "city": "Agadir",
      "phone": "+212662223344",
      "hours": "Lun–Dim 12:00–23:30",
      "has_website": true,
      "verified_at": "2025-12-01T20:30:00Z",
      "source": {"type": "visite", "note": "Dîner sur place"}
    },
    {
      "id": "021",
      "name": "Pâtisserie des Saveurs",
      "slug": "patisserie-des-saveurs-kenitra",
      "category": "patisserie",
      "description": "Spécialiste des gâteaux personnalisés et desserts innovants.",
      "address": "Avenue Moulay Youssef, Kénitra",
      "city": "Kénitra",
      "phone": "+212663334455",
      "hours": "Lun–Dim 07:30–20:30",
      "has_website": false,
      "verified_at": "2025-12-02T09:45:00Z",
      "source": {"type": "telephone", "note": "Commandes confirmées"}
    },
    {
      "id": "022",
      "name": "Boulangerie Tradition",
      "slug": "boulangerie-tradition-meknes",
      "category": "boulangerie",
      "description": "Four à bois traditionnel pour pain croustillant et spécialités régionales.",
      "address": "Médina de Meknès, Meknès",
      "city": "Meknès",
      "phone": "+212664445566",
      "hours": "Lun–Dim 05:00–19:00",
      "has_website": false,
      "verified_at": "2025-12-02T06:30:00Z",
      "source": {"type": "visite", "note": "Four en activité observé"}
    },
    {
      "id": "023",
      "name": "Electro Discount",
      "slug": "electro-discount-tetouan",
      "category": "electromenager",
      "description": "Promotions permanentes sur électroménager avec facilités de paiement.",
      "address": "Avenue Moulay Abbas, Tétouan",
      "city": "Tétouan",
      "phone": "+212665556677",
      "hours": "Lun–Sam 09:00–20:00",
      "has_website": false,
      "verified_at": "2025-12-01T17:30:00Z",
      "source": {"type": "telephone", "note": "Promotions vérifiées"}
    },
    {
      "id": "024",
      "name": "Atelier Ferronnerie",
      "slug": "atelier-ferronnerie-marrakech",
      "category": "industrie",
      "description": "Création artistique en fer forgé pour portails, balcons et décoration.",
      "address": "Quartier Sidi Ghanem, Marrakech",
      "city": "Marrakech",
      "phone": "+212666667788",
      "hours": "Lun–Sam 08:00–18:00",
      "has_website": false,
      "verified_at": "2025-12-02T12:45:00Z",
      "source": {"type": "visite", "note": "Créations artistiques observées"}
    },
    {
      "id": "025",
      "name": "Café des Arts",
      "slug": "cafe-des-arts-casablanca",
      "category": "cafe",
      "description": "Café galerie d'art exposant des œuvres d'artistes locaux.",
      "address": "Quartier Maarif, Casablanca",
      "city": "Casablanca",
      "phone": "+212667778899",
      "hours": "Lun–Dim 08:00–23:00",
      "has_website": true,
      "verified_at": "2025-12-01T14:00:00Z",
      "source": {"type": "visite", "note": "Exposition en cours"}
    },
    {
      "id": "026",
      "name": "Boutique Mobile Pro",
      "slug": "boutique-mobile-pro-rabat",
      "category": "telephonie",
      "description": "Conseil expert en téléphonie mobile et solutions professionnelles.",
      "address": "Agdal, Rabat",
      "city": "Rabat",
      "phone": "+212668889900",
      "hours": "Lun–Sam 10:00–19:00",
      "has_website": true,
      "verified_at": "2025-12-02T15:00:00Z",
      "source": {"type": "telephone", "note": "Expertise confirmée"}
    },
    {
      "id": "027",
      "name": "Supérette La Renaissance",
      "slug": "superette-la-renaissance-tanger",
      "category": "commerce",
      "description": "Épicerie fine avec produits importés et spécialités locales.",
      "address": "Boulevard Mohammed VI, Tanger",
      "city": "Tanger",
      "phone": "+212669990011",
      "hours": "Lun–Dim 08:30–22:00",
      "has_website": false,
      "verified_at": "2025-12-01T18:30:00Z",
      "source": {"type": "visite", "note": "Produits de qualité vérifiés"}
    },
    {
      "id": "028",
      "name": "Menuiserie Ébénisterie",
      "slug": "menuiserie-ebenisterie-fes",
      "category": "menuiserie",
      "description": "Ébénisterie d'art pour meubles de luxe et marqueterie traditionnelle.",
      "address": "Quartier des Andalous, Fès",
      "city": "Fès",
      "phone": "+212661122334",
      "hours": "Lun–Sam 08:00–17:00",
      "has_website": false,
      "verified_at": "2025-12-02T10:15:00Z",
      "source": {"type": "visite", "note": "Travail d'artisanat vérifié"}
    },
    {
      "id": "029",
      "name": "Snack du Marché",
      "slug": "snack-du-marche-rabat",
      "category": "restaurant",
      "description": "Cuisine rapide avec produits frais du marché voisin.",
      "address": "Marché Central, Rabat",
      "city": "Rabat",
      "phone": "+212662233445",
      "hours": "Mar–Dim 10:00–19:00",
      "has_website": false,
      "verified_at": "2025-12-01T12:30:00Z",
      "source": {"type": "visite", "note": "Produits frais observés"}
    },
    {
      "id": "030",
      "name": "Pâtisserie Orientale",
      "slug": "patisserie-orientale-meknes",
      "category": "patisserie",
      "description": "Spécialités orientales traditionnelles : baklava, kaab el ghazal, etc.",
      "address": "Médina, Meknès",
      "city": "Meknès",
      "phone": "+212663344556",
      "hours": "Lun–Dim 08:00–20:00",
      "has_website": false,
      "verified_at": "2025-12-02T08:00:00Z",
      "source": {"type": "telephone", "note": "Spécialités confirmées"}
    },
    {
      "id": "031",
      "name": "Boulangerie La Croissanterie",
      "slug": "boulangerie-la-croissanterie-agadir",
      "category": "boulangerie",
      "description": "Spécialiste des croissants et viennoiseries au beurre AOP.",
      "address": "Quartier Suisse, Agadir",
      "city": "Agadir",
      "phone": "+212664455667",
      "hours": "Lun–Dim 06:00–19:00",
      "has_website": false,
      "verified_at": "2025-12-02T07:15:00Z",
      "source": {"type": "visite", "note": "Viennoiseries testées"}
    },
    {
      "id": "032",
      "name": "Electro Service",
      "slug": "electro-service-marrakech",
      "category": "electromenager",
      "description": "Vente et réparation d'électroménager avec service à domicile.",
      "address": "Gueliz, Marrakech",
      "city": "Marrakech",
      "phone": "+212665566778",
      "hours": "Lun–Sam 09:00–18:30",
      "has_website": false,
      "verified_at": "2025-12-01T16:00:00Z",
      "source": {"type": "telephone", "note": "Service après-vente confirmé"}
    },
    {
      "id": "033",
      "name": "Chaudronnerie Industrielle",
      "slug": "chaudronnerie-industrielle-casablanca",
      "category": "industrie",
      "description": "Fabrication de cuves, réservoirs et équipements industriels sur mesure.",
      "address": "Zone Industrielle Mohammedia, Casablanca",
      "city": "Casablanca",
      "phone": "+212666677889",
      "hours": "Lun–Ven 07:30–17:00",
      "has_website": true,
      "verified_at": "2025-12-02T11:45:00Z",
      "source": {"type": "visite", "note": "Installations industrielles vérifiées"}
    },
    {
      "id": "034",
      "name": "Café View",
      "slug": "cafe-view-tanger",
      "category": "cafe",
      "description": "Café avec vue panoramique sur le détroit de Gibraltar.",
      "address": "Cap Spartel, Tanger",
      "city": "Tanger",
      "phone": "+212667788990",
      "hours": "Lun–Dim 09:00–00:00",
      "has_website": true,
      "verified_at": "2025-12-01T16:30:00Z",
      "source": {"type": "visite", "note": "Vue exceptionnelle confirmée"}
    },
    {
      "id": "035",
      "name": "Phone Expert",
      "slug": "phone-expert-kenitra",
      "category": "telephonie",
      "description": "Diagnostic gratuit et réparation de tous modèles de smartphones.",
      "address": "Centre-ville, Kénitra",
      "city": "Kénitra",
      "phone": "+212668899001",
      "hours": "Lun–Sam 09:30–19:30",
      "has_website": false,
      "verified_at": "2025-12-02T14:00:00Z",
      "source": {"type": "telephone", "note": "Service technique confirmé"}
    },
    {
      "id": "036",
      "name": "Market du Soir",
      "slug": "market-du-soir-fes",
      "category": "commerce",
      "description": "Épicerie ouverte tard avec service de commande par téléphone.",
      "address": "Quartier Jnane Bouhaddou, Fès",
      "city": "Fès",
      "phone": "+212669900112",
      "hours": "Lun–Dim 10:00–23:30",
      "has_website": false,
      "verified_at": "2025-12-01T21:00:00Z",
      "source": {"type": "visite", "note": "Service tardif observé"}
    },
    {
      "id": "037",
      "name": "Menuiserie du Sud",
      "slug": "menuiserie-du-sud-agadir",
      "category": "menuiserie",
      "description": "Menuiserie spécialisée dans les pergolas et terrasses en bois exotique.",
      "address": "Route d'Inzegane, Agadir",
      "city": "Agadir",
      "phone": "+212661233445",
      "hours": "Lun–Sam 08:00–18:00",
      "has_website": true,
      "verified_at": "2025-12-02T12:30:00Z",
      "source": {"type": "visite", "note": "Réalisations extérieures vérifiées"}
    },
    {
      "id": "038",
      "name": "Restaurant La Pergola",
      "slug": "restaurant-la-pergola-marrakech",
      "category": "restaurant",
      "description": "Dîner romantique sous pergola avec musique live le weekend.",
      "address": "Palmeraie, Marrakech",
      "city": "Marrakech",
      "phone": "+212662344556",
      "hours": "Mar–Dim 19:00–23:30",
      "has_website": true,
      "verified_at": "2025-12-01T21:45:00Z",
      "source": {"type": "visite", "note": "Ambiance vérifiée en soirée"}
    },
    {
      "id": "039",
      "name": "Pâtisserie Gourmande",
      "slug": "patisserie-gourmande-tetouan",
      "category": "patisserie",
      "description": "Créations originales et ateliers de pâtisserie pour enfants.",
      "address": "Avenue Moulay Hassan, Tétouan",
      "city": "Tétouan",
      "phone": "+212663455667",
      "hours": "Lun–Dim 08:00–20:00",
      "has_website": false,
      "verified_at": "2025-12-02T09:00:00Z",
      "source": {"type": "telephone", "note": "Ateliers confirmés"}
    },
    {
      "id": "040",
      "name": "Boulangerie du Marché",
      "slug": "boulangerie-du-marche-rabat",
      "category": "boulangerie",
      "description": "Fournisseur officiel de plusieurs restaurants du quartier.",
      "address": "Quartier Hassan, Rabat",
      "city": "Rabat",
      "phone": "+212664566778",
      "hours": "Lun–Dim 04:30–20:00",
      "has_website": false,
      "verified_at": "2025-12-02T05:45:00Z",
      "source": {"type": "visite", "note": "Livraisons professionnelles observées"}
    },
    {
      "id": "041",
      "name": "Electro Vision",
      "slug": "electro-vision-casablanca",
      "category": "electromenager",
      "description": "Showroom high-tech avec réalité augmentée pour visualiser les produits.",
      "address": "Anfa Place, Casablanca",
      "city": "Casablanca",
      "phone": "+212665677889",
      "hours": "Lun–Sam 10:00–21:00",
      "has_website": true,
      "verified_at": "2025-12-01T17:00:00Z",
      "source": {"type": "visite", "note": "Technologies innovantes observées"}
    },
    {
      "id": "042",
      "name": "Usine Métallurgique",
      "slug": "usine-metallurgique-kenitra",
      "category": "industrie",
      "description": "Production de profilés métalliques pour construction et industrie.",
      "address": "Zone Industrielle, Kénitra",
      "city": "Kénitra",
      "phone": "+212666788990",
      "hours": "Lun–Ven 06:30–15:30",
      "has_website": true,
      "verified_at": "2025-12-02T10:30:00Z",
      "source": {"type": "visite", "note": "Capacités de production vérifiées"}
    },
    {
      "id": "043",
      "name": "Café Historique",
      "slug": "cafe-historique-meknes",
      "category": "cafe",
      "description": "Ancien café datant du protectorat avec décoration d'époque.",
      "address": "Place El Hedim, Meknès",
      "city": "Meknès",
      "phone": "+212667899001",
      "hours": "Lun–Dim 07:00–22:00",
      "has_website": false,
      "verified_at": "2025-12-01T11:00:00Z",
      "source": {"type": "visite", "note": "Patrimoine historique préservé"}
    },
    {
      "id": "044",
      "name": "Boutique Smart Life",
      "slug": "boutique-smart-life-agadir",
      "category": "telephonie",
      "description": "Objets connectés et domotique pour maison intelligente.",
      "address": "Marina d'Agadir, Agadir",
      "city": "Agadir",
      "phone": "+212668900112",
      "hours": "Lun–Sam 10:00–19:00",
      "has_website": true,
      "verified_at": "2025-12-02T13:45:00Z",
      "source": {"type": "telephone", "note": "Produits connectés confirmés"}
    },
    {
      "id": "045",
      "name": "Supérette Bio",
      "slug": "superette-bio-casablanca",
      "category": "commerce",
      "description": "Produits biologiques et écologiques en vrac.",
      "address": "Quartier Gauthier, Casablanca",
      "city": "Casablanca",
      "phone": "+212669011223",
      "hours": "Lun–Sam 09:00–20:00",
      "has_website": true,
      "verified_at": "2025-12-01T15:00:00Z",
      "source": {"type": "visite", "note": "Certifications bio vérifiées"}
    },
    {
      "id": "046",
      "name": "Menuiserie Contemporaine",
      "slug": "menuiserie-contemporaine-marrakech",
      "category": "menuiserie",
      "description": "Design moderne et minimaliste avec bois et verre.",
      "address": "Sidi Youssef Ben Ali, Marrakech",
      "city": "Marrakech",
      "phone": "+212661344556",
      "hours": "Lun–Sam 09:00–18:00",
      "has_website": true,
      "verified_at": "2025-12-02T11:00:00Z",
      "source": {"type": "visite", "note": "Style contemporain vérifié"}
    },
    {
      "id": "047",
      "name": "Snack Healthy",
      "slug": "snack-healthy-rabat",
      "category": "restaurant",
      "description": "Options végétariennes, veganes et sans gluten.",
      "address": "Quartier Aviation, Rabat",
      "city": "Rabat",
      "phone": "+212662455667",
      "hours": "Lun–Sam 11:00–20:00",
      "has_website": false,
      "verified_at": "2025-12-01T13:15:00Z",
      "source": {"type": "visite", "note": "Options diététiques vérifiées"}
    },
    {
      "id": "048",
      "name": "Pâtisserie Wedding",
      "slug": "patisserie-wedding-fes",
      "category": "patisserie",
      "description": "Spécialiste des gâteaux de mariage et événements prestigieux.",
      "address": "Quartier Saïss, Fès",
      "city": "Fès",
      "phone": "+212663566778",
      "hours": "Lun–Sam 09:00–19:00",
      "has_website": true,
      "verified_at": "2025-12-02T10:45:00Z",
      "source": {"type": "telephone", "note": "Références mariages confirmées"}
    },
    {
      "id": "049",
      "name": "Boulangerie La Baguette",
      "slug": "boulangerie-la-baguette-tanger",
      "category": "boulangerie",
      "description": "Baguette traditionnelle française et sandwichs à la française.",
      "address": "Quartier Français, Tanger",
      "city": "Tanger",
      "phone": "+212664677889",
      "hours": "Lun–Dim 06:30–20:00",
      "has_website": false,
      "verified_at": "2025-12-02T07:30:00Z",
      "source": {"type": "visite", "note": "Authenticité française vérifiée"}
    },
    {
      "id": "050",
      "name": "Electro Pro",
      "slug": "electro-pro-meknes",
      "category": "electromenager",
      "description": "Équipement professionnel pour restaurants et hôtels.",
      "address": "Zone Industrielle, Meknès",
      "city": "Meknès",
      "phone": "+212665788990",
      "hours": "Lun–Ven 08:30–17:30",
      "has_website": true,
      "verified_at": "2025-12-01T14:30:00Z",
      "source": {"type": "telephone", "note": "Clientèle professionnelle confirmée"}
    },
    {
      "id": "051",
      "name": "Charpente Métallique",
      "slug": "charpente-metallique-agadir",
      "category": "industrie",
      "description": "Conception et montage de charpentes métalliques pour bâtiments.",
      "address": "Zone Industrielle, Agadir",
      "city": "Agadir",
      "phone": "+212666899001",
      "hours": "Lun–Ven 07:00–16:00",
      "has_website": false,
      "verified_at": "2025-12-02T09:30:00Z",
      "source": {"type": "visite", "note": "Chantiers en cours observés"}
    },
    {
      "id": "052",
      "name": "Café Business",
      "slug": "cafe-business-casablanca",
      "category": "cafe",
      "description": "Espace de coworking avec connexion haut débit et salles de réunion.",
      "address": "Twin Center, Casablanca",
      "city": "Casablanca",
      "phone": "+212667900112",
      "hours": "Lun–Sam 07:00–21:00",
      "has_website": true,
      "verified_at": "2025-12-01T09:00:00Z",
      "source": {"type": "visite", "note": "Infrastructures business vérifiées"}
    },
    {
      "id": "053",
      "name": "Phone Store",
      "slug": "phone-store-tetouan",
      "category": "telephonie",
      "description": "Grand choix de téléphones avec possibilité d'échange.",
      "address": "Avenue du Rif, Tétouan",
      "city": "Tétouan",
      "phone": "+212668011223",
      "hours": "Lun–Sam 09:30–20:00",
      "has_website": false,
      "verified_at": "2025-12-02T14:15:00Z",
      "source": {"type": "telephone", "note": "Service d'échange confirmé"}
    },
    {
      "id": "054",
      "name": "Market Halal",
      "slug": "market-halal-rabat",
      "category": "commerce",
      "description": "Produits certifiés halal et épicerie orientale complète.",
      "address": "Quartier Yacoub El Mansour, Rabat",
      "city": "Rabat",
      "phone": "+212669122334",
      "hours": "Lun–Dim 08:00–22:00",
      "has_website": false,
      "verified_at": "2025-12-01T17:45:00Z",
      "source": {"type": "visite", "note": "Certifications halal vérifiées"}
    },
    {
      "id": "055",
      "name": "Menuiserie Alumina",
      "slug": "menuiserie-alumina-kenitra",
      "category": "menuiserie",
      "description": "Combinaison de bois et d'aluminium pour ouvertures modernes.",
      "address": "Route de Rabat, Kénitra",
      "city": "Kénitra",
      "phone": "+212661455667",
      "hours": "Lun–Sam 08:30–17:30",
      "has_website": true,
      "verified_at": "2025-12-02T11:15:00Z",
      "source": {"type": "visite", "note": "Innovations techniques vérifiées"}
    },
    {
      "id": "056",
      "name": "Restaurant Fish Market",
      "slug": "restaurant-fish-market-agadir",
      "category": "restaurant",
      "description": "Poissons et fruits de mer frais choisis directement dans l'étal.",
      "address": "Port de pêche, Agadir",
      "city": "Agadir",
      "phone": "+212662566778",
      "hours": "Lun–Dim 12:00–22:00",
      "has_website": false,
      "verified_at": "2025-12-01T19:15:00Z",
      "source": {"type": "visite", "note": "Frais des produits vérifié"}
    },
    {
      "id": "057",
      "name": "Pâtisserie Française",
      "slug": "patisserie-francaise-casablanca",
      "category": "patisserie",
      "description": "Pâtissier formé en France, spécialiste des entremets et chocolats.",
      "address": "Anfa, Casablanca",
      "city": "Casablanca",
      "phone": "+212663677889",
      "hours": "Lun–Dim 08:00–20:00",
      "has_website": true,
      "verified_at": "2025-12-02T09:15:00Z",
      "source": {"type": "telephone", "note": "Formation française confirmée"}
    },
    {
      "id": "058",
      "name": "Boulangerie Familiale",
      "slug": "boulangerie-familiale-fes",
      "category": "boulangerie",
      "description": "Recettes transmises depuis trois générations dans la famille.",
      "address": "Médina, Fès",
      "city": "Fès",
      "phone": "+212664788990",
      "hours": "Lun–Dim 05:00–19:00",
      "has_website": false,
      "verified_at": "2025-12-02T06:00:00Z",
      "source": {"type": "visite", "note": "Tradition familiale observée"}
    },
    {
      "id": "059",
      "name": "Electro Maison",
      "slug": "electro-maison-marrakech",
      "category": "electromenager",
      "description": "Solutions complètes pour équiper sa maison de A à Z.",
      "address": "Sidi Abbad, Marrakech",
      "city": "Marrakech",
      "phone": "+212665899001",
      "hours": "Lun–Sam 09:00–19:00",
      "has_website": true,
      "verified_at": "2025-12-01T16:30:00Z",
      "source": {"type": "telephone", "note": "Packages maison confirmés"}
    },
    {
      "id": "060",
      "name": "Serruurerie Industrielle",
      "slug": "serruurerie-industrielle-tanger",
      "category": "industrie",
      "description": "Fabrication de serrures haute sécurité et systèmes de fermeture.",
      "address": "Zone Industrielle, Tanger",
      "city": "Tanger",
      "phone": "+212666900112",
      "hours": "Lun–Ven 08:00–17:00",
      "has_website": false,
      "verified_at": "2025-12-02T10:45:00Z",
      "source": {"type": "visite", "note": "Sécurité des produits testée"}
    }
  ]